- institution: Aalto University, Finland
  name: Otto Seppälä and Juha Sorva
  location:
    longitude: 24.8254933
    latitude: 60.1866719
- institution: AGH University of Science and Technology, Poland
  name: Roman Debski and Bartosz Balis
  location:
    longitude: 19.9149496
    latitude: 50.0689793
- institution: DePauw University, United States
  name: Brian Howard
  location:
    longitude: -86.8635
    latitude: 39.6394
- institution: École Polytechnique Fédérale de Lausanne, Switzerland
  name: Martin Odersky and Michel Schinz
  location:
    longitude: 6.5600475
    latitude: 46.5185825
- institution: EPITA, France
  name: Jim Newton
  location:
    longitude: 2.3551565
    latitude: 48.7979973
- institution: Haute École d’Ingénierie et de Gestion du canton de Vaud, Switzerland
  name: Nastaran Fatemi
  location:
    longitude: 6.6571205
    latitude: 46.7792436
- institution: Hong Kong University of Science and Technology, Hong Kong
  name: Lionel Parreaux
  location:
    longitude: 114.2632715
    latitude: 22.3363998
- institution: Kharkiv National University of Radio Electronics, Ukraine
  name: Vyacheslav Grebenyuk
  location:
    longitude: 36.2264517
    latitude: 50.0150941
- institution: King’s College London, United Kingdom
  name: Christian Urban
  location:
    longitude: -0.1181857
    latitude: 51.5114897
- institution: Kogics, India
  name: Lalit Pant
  location:
    longitude: 77.9469233
    latitude: 30.3254097
- institution: Korea Advanced Institute of Science and Technology, South Korea
  name: Sukyoung Ryu
  location:
    longitude: 127.358196
    latitude: 36.3721427
- institution: KTH Royal Institute of Technology, Sweden
  name: Philipp Haller
  location:
    longitude: 18.0680626
    latitude: 59.3498706
- institution: Lund University, Sweden
  name: Björn Regnell
  location:
    longitude: 13.203493
    latitude: 55.7119483
- institution: Trinity University, United States
  name: Mark Lewis
  location:
    longitude: -98.4855322
    latitude: 29.4618769
- institution: Tübingen University, Germany
  name: Jonathan Brächthaeuser
  location:
    longitude: 9.04158
    latitude: 48.5294782
- institution: United States Military Academy at West Point, United States
  name: Chris Okasaki, Ryan Dougherty, Tom Cook, and Maria Ebling
  location:
    longitude: -73.9571
    latitude: 41.3889
- institution: Université de Genève, Switzerland
  name: Laurent Moccozet
  location:
    longitude: 6.1429217
    latitude: 46.199444
- institution: University of New England, Australia
  name: William Billingsley
  location:
    longitude: 151.643
    latitude: -30.487
- institution: University of Wrocław, Poland
  name: Michał Kowalczykiewicz
  location:
    longitude: 17.0322743
    latitude: 51.1140086
- institution: University Rey Juan Carlos, Spain
  name: Juan M. Serrano
  location:
    longitude: -3.877161467041959
    latitude: 40.33560214407111
- institution: Haute Ecole d'Ingénierie, Filière ISC, Switzerland
  name: Pierre-André Mudry
  location:
    longitude: 7.3555900
    latitude: 46.2273900
- institution: Université Gustave Eiffel, France
  name: François Sarradin
  location:
    longitude: 2.5876883468165737
    latitude: 48.84274497346383
- institution: Université Sorbonne Paris Nord, France
  name: Pierre Boudes
  location:
    longitude: 2.34003
    latitude: 48.95888
    
